[{"id":"0fe08b6e-2755-4ca5-ad92-6c59acf884c8","name":"Livetube","logo":"http://lorempixel.com/360/222/abstract/8","website":"http://china.com.cn/nisi/volutpat/eleifend/donec/ut/dolor/morbi.jsp","emails":["lcarroll0@bloomberg.com","nbishop0@t-online.de","mhayes0@hp.com"],"phones":["1-(412)752-8933"],"lastAccess":"2015-11-16T07:40:47Z","location":{"street":"62 Lighthouse Bay Avenue","city":"Gastonia","state":"North Carolina","country":"United States","lon":"23.7167","lat":"37.9667"}},
{"id":"944f6007-1214-4fdc-a21d-e49554d3b923","name":"Izio","logo":"http://lorempixel.com/360/222/abstract/7","website":"http://pinterest.com/lorem.js","emails":["jpayne1@bravesites.com","devans1@si.edu"],"phones":["1-(916)415-2562","1-(501)919-3500","1-(915)236-4528"],"lastAccess":"2015-11-20T20:58:27Z","location":{"street":"2 Dryden Plaza","city":"Port Saint Lucie","state":"Florida","country":"United States","lon":"-80.409","lat":"27.3822"}},
{"id":"c52c9ab2-a324-4b96-baca-88d0998e1f96","name":"Jaxnation","logo":"http://lorempixel.com/360/222/abstract/2","website":"http://facebook.com/vestibulum/ante.png","emails":["jrobertson2@purevolume.com","kwillis2@google.co.jp"],"phones":["1-(360)232-5500","1-(803)954-4036"],"lastAccess":"2015-12-07T01:45:32Z","location":{"street":"20 Pepper Wood Road","city":"Rochester","state":"New York","country":"United States","lon":"-77.6142","lat":"43.1558"}},
{"id":"271ffaee-0d53-4de1-908e-9e800980930a","name":"Cogilith","logo":"http://lorempixel.com/360/222/abstract/4","website":"https://twitpic.com/sit/amet/nunc/viverra/dapibus/nulla.js","emails":["gbradley3@wordpress.com","bsmith3@apache.org"],"phones":["1-(806)368-9309","1-(661)209-2030","1-(718)538-7626"],"lastAccess":"2015-12-14T11:41:53Z","location":{"street":"48805 Sherman Place","city":"Naples","state":"Florida","country":"United States","lon":"-81.8071","lat":"26.2626"}},
{"id":"e8d6e3cd-2c96-40f9-ae28-d70e7415ad65","name":"Jaloo","logo":"http://lorempixel.com/360/222/abstract/8","website":"http://free.fr/pellentesque/quisque.aspx","emails":["rwilliamson4@bing.com","wreyes4@yale.edu"],"phones":["1-(570)474-2829","1-(320)861-1816","1-(626)258-8063"],"lastAccess":"2015-12-09T21:23:56Z","location":{"street":"95 Wayridge Alley","city":"San Francisco","state":"California","country":"United States","lon":"-122.7278","lat":"37.7848"}},
{"id":"6f933cd5-f41b-4abd-b364-885ac3bf1c70","name":"Ntags","logo":"http://lorempixel.com/360/222/abstract/0","website":"http://skype.com/tincidunt/eget/tempus.js","emails":["ddavis5@hibu.com","joliver5@google.ca"],"phones":["1-(513)358-2999","1-(915)656-0564","1-(404)287-7798"],"lastAccess":"2015-11-28T00:21:22Z","location":{"street":"33 Sachtjen Road","city":"San Diego","state":"California","country":"United States","lon":"-116.846","lat":"33.0169"}},
{"id":"c6335a4c-87c6-412e-a7b8-2cf96949d33b","name":"Cogidoo","logo":"http://lorempixel.com/360/222/abstract/0","website":"https://php.net/sapien/dignissim/vestibulum/vestibulum/ante.js","emails":[],"phones":[],"lastAccess":"2015-11-29T03:53:28Z","location":{"street":"51 Schmedeman Lane","city":"Albany","state":"Georgia","country":"United States","lon":"-84.0612","lat":"31.55"}},
{"id":"eaea6cb8-7327-437a-8edd-ad398d64396a","name":"Zooveo","logo":"http://lorempixel.com/360/222/abstract/3","website":"https://cpanel.net/amet/eros/suspendisse.html","emails":["dhunter7@google.com.hk","smitchell7@devhub.com","mdixon7@cnn.com"],"phones":[],"lastAccess":"2015-12-11T19:27:31Z","location":{"street":"86076 Hallows Road","city":"Escondido","state":"California","country":"United States","lon":"-116.846","lat":"33.0169"}},
{"id":"4167229f-de81-429a-949f-ea381b209236","name":"Realmix","logo":"http://lorempixel.com/360/222/abstract/9","website":"https://bloomberg.com/at/diam/nam/tristique/tortor/eu.jpg","emails":["egreen8@freewebs.com","bkennedy8@google.ca","iberry8@geocities.com"],"phones":["1-(617)154-2981"],"lastAccess":"2015-12-08T11:07:56Z","location":{"street":"4 Haas Hill","city":"Newton","state":"Massachusetts","country":"United States","lon":"-71.254","lat":"42.3319"}},
{"id":"3ec61d2f-b02a-41ba-8220-dfca32747949","name":"Oba","logo":"http://lorempixel.com/360/222/abstract/7","website":"http://cafepress.com/accumsan/odio/curabitur/convallis/duis.jsp","emails":["jfranklin9@intel.com"],"phones":["1-(772)740-3349","1-(317)817-4909","1-(405)634-1333"],"lastAccess":"2015-12-28T08:33:30Z","location":{"street":"505 Corry Terrace","city":"San Francisco","state":"California","country":"United States","lon":"-122.7278","lat":"37.7848"}},
{"id":"afe5adf6-bf77-474e-8c81-6660ebb62105","name":"Eare","logo":"http://lorempixel.com/360/222/abstract/1","website":"https://oaic.gov.au/consectetuer/adipiscing.js","emails":[],"phones":["1-(706)393-4122","1-(480)972-6447"],"lastAccess":"2015-12-03T22:03:28Z","location":{"street":"3 Michigan Street","city":"Phoenix","state":"Arizona","country":"United States","lon":"-112.1872","lat":"33.2765"}},
{"id":"0c43d889-5fdc-4d5a-9184-7aef68ec0431","name":"Oyondu","logo":"http://lorempixel.com/360/222/abstract/8","website":"https://washington.edu/at/nunc.js","emails":["tparkerb@plala.or.jp","csandersb@economist.com"],"phones":["1-(802)105-1897","1-(312)957-5872"],"lastAccess":"2015-12-18T10:01:17Z","location":{"street":"404 Sage Way","city":"Richmond","state":"Virginia","country":"United States","lon":"-77.4471","lat":"37.5593"}},
{"id":"0b2366ba-b675-4ebe-972a-0428762544c8","name":"Dynabox","logo":"http://lorempixel.com/360/222/abstract/2","website":"http://de.vu/id/nisl/venenatis.html","emails":["agibsonc@g.co","jfreemanc@tinyurl.com","dmyersc@adobe.com"],"phones":["1-(417)273-8137"],"lastAccess":"2015-11-14T05:44:31Z","location":{"street":"9 Sachtjen Street","city":"Raleigh","state":"North Carolina","country":"United States","lon":"-78.6008","lat":"35.7667"}},
{"id":"caea528a-2a8b-4664-89f3-fbe0cda9e0cc","name":"Dabshots","logo":"http://lorempixel.com/360/222/abstract/6","website":"https://networkadvertising.org/volutpat/quam/pede.js","emails":[],"phones":["1-(406)194-5169","1-(915)315-2350","1-(913)382-9140"],"lastAccess":"2015-11-26T10:02:12Z","location":{"street":"8 Jana Pass","city":"Tacoma","state":"Washington","country":"United States","lon":"-122.3594","lat":"47.2325"}},
{"id":"56cd28fa-9365-4aaf-883e-caf6c0c94ccd","name":"JumpXS","logo":"http://lorempixel.com/360/222/abstract/6","website":"http://tripadvisor.com/vestibulum/aliquet/ultrices.xml","emails":[],"phones":["1-(404)245-1814"],"lastAccess":"2015-12-18T16:16:30Z","location":{"street":"76 Bayside Street","city":"Las Vegas","state":"Nevada","country":"United States","lon":"-115.2828","lat":"36.1693"}},
{"id":"2ad136ec-a1ff-466d-b306-cd8735fcf8c5","name":"Kimia","logo":"http://lorempixel.com/360/222/abstract/9","website":"https://simplemachines.org/eget.jpg","emails":[],"phones":["1-(208)246-6860","1-(410)346-5208","1-(203)438-0253"],"lastAccess":"2015-11-02T18:55:23Z","location":{"street":"5 Manufacturers Junction","city":"El Paso","state":"Texas","country":"United States","lon":"-106.5426","lat":"31.8925"}},
{"id":"d3f9d266-8ed4-4bdb-87ea-4c9e7453e40f","name":"Skajo","logo":"http://lorempixel.com/360/222/abstract/6","website":"https://nih.gov/eros.jsp","emails":[],"phones":["1-(832)279-7794","1-(612)719-0507","1-(239)266-0270"],"lastAccess":"2015-12-19T08:33:29Z","location":{"street":"6262 Crownhardt Park","city":"Mobile","state":"Alabama","country":"United States","lon":"-88.178","lat":"30.6589"}},
{"id":"70835850-01a5-4da5-9f44-a3df94029d4b","name":"Muxo","logo":"http://lorempixel.com/360/222/abstract/3","website":"https://pen.io/neque/libero/convallis/eget/eleifend/luctus/ultricies.html","emails":["pbowmanh@chicagotribune.com","mburtonh@cloudflare.com","mwoodsh@globo.com"],"phones":["1-(720)555-1820","1-(339)582-2452","1-(727)362-5037"],"lastAccess":"2015-11-12T23:43:16Z","location":{"street":"2 Milwaukee Terrace","city":"Des Moines","state":"Iowa","country":"United States","lon":"-93.5722","lat":"41.6727"}},
{"id":"1d147163-d4c1-44cb-9c23-cb37effb7cad","name":"Skidoo","logo":"http://lorempixel.com/360/222/abstract/9","website":"https://sourceforge.net/rutrum/ac.json","emails":[],"phones":[],"lastAccess":"2015-12-15T20:00:23Z","location":{"street":"196 Cordelia Pass","city":"Naples","state":"Florida","country":"United States","lon":"-81.8071","lat":"26.2626"}},
{"id":"b8979006-c8f8-4fc6-b750-797d1a732a1b","name":"Avamm","logo":"http://lorempixel.com/360/222/abstract/9","website":"http://comsenz.com/laoreet/ut.json","emails":["cgreenej@cloudflare.com","afieldsj@i2i.jp","rwelchj@cnn.com"],"phones":[],"lastAccess":"2015-12-04T05:18:08Z","location":{"street":"22176 Nancy Alley","city":"Gainesville","state":"Florida","country":"United States","lon":"-82.3539","lat":"29.6813"}},
{"id":"560d25fe-9d97-40a3-bdc2-a3009a240a91","name":"Oozz","logo":"http://lorempixel.com/360/222/abstract/3","website":"http://parallels.com/ac/leo/pellentesque/ultrices/mattis.jsp","emails":["rfosterk@constantcontact.com"],"phones":["1-(813)348-8861"],"lastAccess":"2015-11-30T05:41:15Z","location":{"street":"5 Sachs Hill","city":"Jamaica","state":"New York","country":"United States","lon":"-73.8061","lat":"40.6914"}},
{"id":"3643513f-a920-4cb8-a24a-cffe61562e08","name":"Jabbersphere","logo":"http://lorempixel.com/360/222/abstract/8","website":"http://devhub.com/sit/amet/erat/nulla/tempus/vivamus/in.xml","emails":[],"phones":["1-(802)719-1881","1-(972)503-6021","1-(313)185-0843"],"lastAccess":"2015-11-04T01:42:20Z","location":{"street":"4 Anthes Parkway","city":"Seattle","state":"Washington","country":"United States","lon":"-122.3308","lat":"47.6063"}},
{"id":"f12ede50-7d8a-4b22-81f0-04b14593e637","name":"Aibox","logo":"http://lorempixel.com/360/222/abstract/0","website":"https://npr.org/quis/turpis/eget/elit/sodales/scelerisque/mauris.xml","emails":["malvarezm@github.com","jchapmanm@psu.edu","wbrooksm@4shared.com"],"phones":[],"lastAccess":"2015-10-30T04:43:17Z","location":{"street":"6812 Tennessee Junction","city":"Scottsdale","state":"Arizona","country":"United States","lon":"-111.8867","lat":"33.6013"}},
{"id":"3b503f53-84dd-447a-9b58-834e08948764","name":"Meedoo","logo":"http://lorempixel.com/360/222/abstract/8","website":"http://live.com/nullam/orci.xml","emails":["hgonzalezn@ibm.com","alopezn@yandex.ru","agreenn@storify.com"],"phones":["1-(352)749-6854","1-(206)684-3608","1-(212)438-7358"],"lastAccess":"2015-11-12T14:04:41Z","location":{"street":"4086 Annamark Place","city":"Houston","state":"Texas","country":"United States","lon":"-95.26","lat":"29.6223"}},
{"id":"9d1d5229-d8be-4131-9d62-4a036457d4dd","name":"Kaymbo","logo":"http://lorempixel.com/360/222/abstract/7","website":"http://stumbleupon.com/curae/nulla/dapibus/dolor/vel/est.html","emails":["twellso@wikipedia.org","hburkeo@purevolume.com","mhugheso@multiply.com"],"phones":["1-(817)833-7627","1-(909)740-1182"],"lastAccess":"2015-11-12T05:11:53Z","location":{"street":"96 Ridgeway Place","city":"Hollywood","state":"Florida","country":"United States","lon":"-80.3449","lat":"26.0185"}},
{"id":"62a45625-cfd6-43e2-bc48-dbb34a8c22a2","name":"Ailane","logo":"http://lorempixel.com/360/222/abstract/1","website":"http://ezinearticles.com/id/ornare/imperdiet/sapien.js","emails":["jbishopp@ox.ac.uk","cmarshallp@google.cn"],"phones":["1-(573)550-1404"],"lastAccess":"2015-12-19T13:27:48Z","location":{"street":"781 Ludington Junction","city":"Decatur","state":"Georgia","country":"United States","lon":"-84.2819","lat":"33.8123"}},
{"id":"885bba81-4bb7-4298-b5ac-6137efe2ed6d","name":"Fiveclub","logo":"http://lorempixel.com/360/222/abstract/7","website":"http://simplemachines.org/sagittis/sapien/cum/sociis/natoque.xml","emails":["hboydq@marketwatch.com","kshawq@yelp.com","crogersq@ft.com"],"phones":["1-(701)979-2280","1-(915)817-7438"],"lastAccess":"2015-12-07T20:44:53Z","location":{"street":"79 Corscot Crossing","city":"Elizabeth","state":"New Jersey","country":"United States","lon":"-74.2239","lat":"40.6747"}},
{"id":"6b1ef572-f631-4cde-959f-778542330297","name":"Meevee","logo":"http://lorempixel.com/360/222/abstract/5","website":"https://theguardian.com/in.html","emails":["hmedinar@aboutads.info","jmoralesr@dion.ne.jp","dkellyr@nature.com"],"phones":["1-(202)683-3792"],"lastAccess":"2015-11-25T04:08:06Z","location":{"street":"89 Magdeline Circle","city":"Anaheim","state":"California","country":"United States","lon":"-117.9086","lat":"33.8359"}},
{"id":"9b79b1f3-6643-4e7c-a39b-1bf898954248","name":"Topdrive","logo":"http://lorempixel.com/360/222/abstract/1","website":"http://drupal.org/sit/amet/lobortis/sapien/sapien/non.html","emails":["agonzalezs@netlog.com","kjamess@wisc.edu","gburkes@addtoany.com"],"phones":[],"lastAccess":"2015-11-08T22:36:39Z","location":{"street":"21628 Bellgrove Lane","city":"Orlando","state":"Florida","country":"United States","lon":"-81.4396","lat":"28.5803"}},
{"id":"ed6fcc1e-8de3-4e9d-91c2-a69d6ddf7fed","name":"Dynazzy","logo":"http://lorempixel.com/360/222/abstract/0","website":"http://adobe.com/fusce/lacus/purus/aliquet/at/feugiat/non.jpg","emails":[],"phones":["1-(337)276-3159"],"lastAccess":"2015-11-11T20:45:03Z","location":{"street":"8 Hauk Crossing","city":"Albuquerque","state":"New Mexico","country":"United States","lon":"-106.5781","lat":"35.1104"}}]
